City,Country,Capital,Latitude,Longitude
Bucharest,Romania,true,44.4268,26.1025
Paris,France,true,48.8566,2.3522
Berlin,Germany,true,52.52,13.4050
Madrid,Spain,true,40.4168,-3.7038
Lisbon,Portugal,true,38.7169,-9.1399